[
  {"id":"LIB-001","name":"Austin Central Library","address":"710 W Cesar Chavez St, Austin, TX 78701","city":"Austin","state":"TX","lat":30.2670,"lng":-97.7497,"phone":"(512) 974-7400","hours":"Mon-Thu 10am-8pm, Fri-Sat 10am-6pm, Sun 12pm-6pm","website":"library.austintexas.gov","wifi":true,"parking":"garage"},
  {"id":"LIB-002","name":"Dallas Public Library — Central","address":"1515 Young St, Dallas, TX 75201","city":"Dallas","state":"TX","lat":32.7748,"lng":-96.8020,"phone":"(214) 670-1400","hours":"Mon-Thu 9am-9pm, Fri-Sat 9am-6pm, Sun 1pm-5pm","website":"dallaslibrary2.org","wifi":true,"parking":"lot"},
  {"id":"LIB-003","name":"Miami-Dade Main Library","address":"101 W Flagler St, Miami, FL 33130","city":"Miami","state":"FL","lat":25.7753,"lng":-80.1944,"phone":"(305) 375-2665","hours":"Mon-Sat 9am-6pm, Sun 1pm-5pm","website":"mdpls.org","wifi":true,"parking":"garage"},
  {"id":"LIB-004","name":"Atlanta-Fulton Public Library — Central","address":"1 Margaret Mitchell Square NW, Atlanta, GA 30303","city":"Atlanta","state":"GA","lat":33.7568,"lng":-84.3920,"phone":"(404) 730-1700","hours":"Mon-Thu 9am-8pm, Fri-Sat 9am-6pm, Sun 2pm-6pm","website":"afpls.org","wifi":true,"parking":"garage"},
  {"id":"LIB-005","name":"Chicago Public Library — Harold Washington","address":"400 S State St, Chicago, IL 60605","city":"Chicago","state":"IL","lat":41.8762,"lng":-87.6280,"phone":"(312) 747-4300","hours":"Mon-Thu 9am-9pm, Fri-Sat 9am-5pm, Sun 1pm-5pm","website":"chipublib.org","wifi":true,"parking":"street"},
  {"id":"LIB-006","name":"San Diego Central Library","address":"330 Park Blvd, San Diego, CA 92101","city":"San Diego","state":"CA","lat":32.7093,"lng":-117.1501,"phone":"(619) 236-5800","hours":"Mon-Thu 9:30am-8pm, Fri-Sat 9:30am-6pm, Sun 1pm-5pm","website":"sandiego.gov/public-library","wifi":true,"parking":"garage"},
  {"id":"LIB-007","name":"San Antonio Public Library — Central","address":"600 Soledad St, San Antonio, TX 78205","city":"San Antonio","state":"TX","lat":29.4252,"lng":-98.4942,"phone":"(210) 207-2500","hours":"Mon-Thu 9am-9pm, Fri-Sat 9am-6pm, Sun 11am-6pm","website":"mysapl.org","wifi":true,"parking":"garage"},
  {"id":"LIB-008","name":"Orange County Library — Orlando","address":"101 E Central Blvd, Orlando, FL 32801","city":"Orlando","state":"FL","lat":28.5420,"lng":-81.3791,"phone":"(407) 835-7323","hours":"Mon-Thu 9am-9pm, Fri-Sat 9am-6pm, Sun 1pm-6pm","website":"ocls.info","wifi":true,"parking":"garage"},
  {"id":"LIB-009","name":"Los Angeles Central Library","address":"630 W 5th St, Los Angeles, CA 90071","city":"Los Angeles","state":"CA","lat":34.0500,"lng":-118.2563,"phone":"(213) 228-7000","hours":"Mon-Thu 10am-8pm, Fri-Sat 10am-6pm, Sun 1pm-5pm","website":"lapl.org","wifi":true,"parking":"garage"},
  {"id":"LIB-010","name":"Albuquerque Bernalillo County Library","address":"501 Copper Ave NW, Albuquerque, NM 87102","city":"Albuquerque","state":"NM","lat":35.0843,"lng":-106.6534,"phone":"(505) 768-5100","hours":"Mon-Thu 10am-7pm, Fri-Sat 10am-5pm","website":"abclibrary.org","wifi":true,"parking":"lot"},
  {"id":"LIB-011","name":"Carnegie Library of Pittsburgh — Main","address":"4400 Forbes Ave, Pittsburgh, PA 15213","city":"Pittsburgh","state":"PA","lat":40.4426,"lng":-79.9507,"phone":"(412) 622-3114","hours":"Mon-Thu 10am-8pm, Fri-Sat 10am-5:30pm, Sun 1pm-5pm","website":"carnegielibrary.org","wifi":true,"parking":"lot"},
  {"id":"LIB-012","name":"Denver Public Library — Central","address":"10 W 14th Ave Pkwy, Denver, CO 80204","city":"Denver","state":"CO","lat":39.7365,"lng":-104.9893,"phone":"(720) 865-1111","hours":"Mon-Fri 10am-8pm, Sat 9am-5pm, Sun 1pm-5pm","website":"denverlibrary.org","wifi":true,"parking":"garage"},
  {"id":"LIB-013","name":"Nashville Public Library — Main","address":"615 Church St, Nashville, TN 37219","city":"Nashville","state":"TN","lat":36.1617,"lng":-86.7803,"phone":"(615) 862-5800","hours":"Mon-Thu 9am-8pm, Fri-Sat 9am-6pm, Sun 2pm-6pm","website":"library.nashville.org","wifi":true,"parking":"garage"},
  {"id":"LIB-014","name":"Phoenix Public Library — Burton Barr Central","address":"1221 N Central Ave, Phoenix, AZ 85004","city":"Phoenix","state":"AZ","lat":33.4600,"lng":-112.0744,"phone":"(602) 262-4636","hours":"Mon-Thu 9am-9pm, Fri-Sat 9am-6pm, Sun 1pm-6pm","website":"phoenixpubliclibrary.org","wifi":true,"parking":"garage"},
  {"id":"LIB-015","name":"Detroit Public Library — Main","address":"5201 Woodward Ave, Detroit, MI 48202","city":"Detroit","state":"MI","lat":42.3639,"lng":-83.0642,"phone":"(313) 481-1300","hours":"Tue-Thu 10am-8pm, Fri-Sat 10am-6pm","website":"detroitpubliclibrary.org","wifi":true,"parking":"lot"},
  {"id":"LIB-016","name":"New Orleans Public Library — Main","address":"219 Loyola Ave, New Orleans, LA 70112","city":"New Orleans","state":"LA","lat":29.9510,"lng":-90.0754,"phone":"(504) 596-2550","hours":"Mon-Thu 10am-8pm, Fri-Sat 10am-5pm","website":"neworleanspubliclibrary.org","wifi":true,"parking":"street"},
  {"id":"LIB-017","name":"Seattle Public Library — Central","address":"1000 4th Ave, Seattle, WA 98104","city":"Seattle","state":"WA","lat":47.6064,"lng":-122.3329,"phone":"(206) 386-4636","hours":"Mon-Thu 10am-8pm, Fri-Sat 10am-6pm, Sun 12pm-6pm","website":"spl.org","wifi":true,"parking":"garage"},
  {"id":"LIB-018","name":"Kansas City Public Library — Central","address":"14 W 10th St, Kansas City, MO 64105","city":"Kansas City","state":"MO","lat":39.0997,"lng":-94.5828,"phone":"(816) 701-3400","hours":"Mon-Thu 9am-9pm, Fri-Sat 9am-6pm, Sun 1pm-9pm","website":"kclibrary.org","wifi":true,"parking":"garage"},
  {"id":"LIB-019","name":"St. Louis Public Library — Central","address":"1301 Olive St, St. Louis, MO 63103","city":"St. Louis","state":"MO","lat":38.6296,"lng":-90.2012,"phone":"(314) 241-2288","hours":"Mon-Thu 9am-8pm, Fri-Sat 9am-5pm, Sun 1pm-5pm","website":"slpl.org","wifi":true,"parking":"street"},
  {"id":"LIB-020","name":"Boston Public Library — Central","address":"700 Boylston St, Boston, MA 02116","city":"Boston","state":"MA","lat":42.3492,"lng":-71.0781,"phone":"(617) 536-5400","hours":"Mon-Thu 9am-9pm, Fri-Sat 9am-5pm, Sun 1pm-5pm","website":"bpl.org","wifi":true,"parking":"garage"},
  {"id":"LIB-021","name":"Columbus Metropolitan Library — Main","address":"96 S Grant Ave, Columbus, OH 43215","city":"Columbus","state":"OH","lat":39.9581,"lng":-82.9987,"phone":"(614) 645-2275","hours":"Mon-Thu 9am-9pm, Fri-Sat 9am-6pm, Sun 1pm-5pm","website":"columbuslibrary.org","wifi":true,"parking":"lot"},
  {"id":"LIB-022","name":"Las Vegas Clark County Library — West Charleston","address":"6301 W Charleston Blvd, Las Vegas, NV 89146","city":"Las Vegas","state":"NV","lat":36.1532,"lng":-115.2220,"phone":"(702) 507-3964","hours":"Mon-Thu 10am-8pm, Fri-Sat 10am-6pm","website":"lvccld.org","wifi":true,"parking":"lot"},
  {"id":"LIB-023","name":"Indianapolis Public Library — Central","address":"40 E St Clair St, Indianapolis, IN 46204","city":"Indianapolis","state":"IN","lat":39.7727,"lng":-86.1568,"phone":"(317) 275-4100","hours":"Mon-Thu 10am-8pm, Fri-Sat 10am-5pm","website":"indypl.org","wifi":true,"parking":"garage"},
  {"id":"LIB-024","name":"Portland Public Library — Main","address":"5 Monument Square, Portland, ME 04101","city":"Portland","state":"ME","lat":43.6571,"lng":-70.2587,"phone":"(207) 871-1700","hours":"Mon-Thu 9am-8pm, Fri-Sat 9am-5pm","website":"portlandlibrary.com","wifi":true,"parking":"lot"},
  {"id":"LIB-025","name":"Fort Worth Public Library — Central","address":"500 W 3rd St, Fort Worth, TX 76102","city":"Fort Worth","state":"TX","lat":32.7512,"lng":-97.3299,"phone":"(817) 392-7323","hours":"Mon-Thu 9am-9pm, Fri-Sat 9am-6pm, Sun 1pm-6pm","website":"fortworthlibrary.org","wifi":true,"parking":"garage"}
]
